名称,種別,緯度,経度,ベッド数,救急,児童
向陽台病院,自院,32.9223,130.693,198,1,1
弓削病院,精神科,32.8835,130.805,240,1,1
菊陽病院,精神科,32.8705,130.817,206,1,1
益城病院,精神科,32.8005,130.815,200,1,0
玉名病院,精神科,32.94,130.56,200,0,1
希望ヶ丘病院,精神科,32.81,130.84,200,0,1
熊本県立こころの医療センター,精神科,32.789,130.741,200,0,1
のぞえ総合診療病院,精神科,33.3105,130.542,300,1,0
のぞえの丘病院,精神科,33.315,130.548,200,1,1
聖ルチア病院,精神科,33.309,130.545,300,1,1
